{"business_id": "gMMSxoxlu-CcocrwRJfgPg", "name": "This Magic Moment Bridal Studio", "address": "4091 William Flynn Hwy, Ste 500", "city": "Allison Park", "state": "PA", "postal_code": "15101", "latitude": 40.5679582, "longitude": -79.9549868, "stars": 5.0, "review_count": 15, "is_open": 1, "attributes": {"ByAppointmentOnly": "True", "BusinessAcceptsBitcoin": "False", "BikeParking": "True", "BusinessAcceptsCreditCards": "True", "BusinessParking": "{'garage': False, 'street': False, 'validated': False, 'lot': True, 'valet': False}", "RestaurantsPriceRange2": "2"}, "categories": "Used, Vintage & Consignment, Shopping Centers, Bridal, Fashion, Event Planning & Services, Children's Clothing, Wedding Planning, Shopping", "hours": {"Tuesday": "12:0-20:0", "Wednesday": "10:0-20:0", "Thursday": "10:0-20:0", "Friday": "10:0-18:0", "Saturday": "10:0-16:0"}}
{"business_id": "I5TgzHGJI3jvJq6xdauLPA", "name": "Perfect Pastry", "address": "3612 William Flynn Hwy", "city": "Allison Park", "state": "PA", "postal_code": "15101", "latitude": 40.5545321, "longitude": -79.958021, "stars": 3.5, "review_count": 9, "is_open": 0, "attributes": {"GoodForKids": "True", "BusinessAcceptsCreditCards": "True", "NoiseLevel": "u'quiet'", "Alcohol": "u'none'", "RestaurantsAttire": "'casual'", "RestaurantsGoodForGroups": "True", "HasTV": "False", "RestaurantsDelivery": "False", "Ambience": "{'touristy': False, 'hipster': False, 'romantic': False, 'divey': False, 'intimate': False, 'trendy': False, 'upscale': False, 'classy': False, 'casual': False}", "RestaurantsPriceRange2": "2", "RestaurantsTakeOut": "True", "OutdoorSeating": "False", "RestaurantsReservations": "False"}, "categories": "Restaurants, Food, Bakeries, Desserts, Custom Cakes", "hours": {"Tuesday": "10:0-16:0", "Wednesday": "10:0-16:0", "Thursday": "10:0-16:0", "Friday": "10:0-16:0", "Saturday": "10:0-14:0"}}
{"business_id": "HW84sYbDHRVGRUXFd3wseA", "name": "Kotobuki Japanese Restaurant", "address": "9801 Babcock Blvd", "city": "Allison Park", "state": "PA", "postal_code": "15101", "latitude": 40.587217, "longitude": -80.001142, "stars": 3.5, "review_count": 8, "is_open": 0, "attributes": {"BusinessParking": "{'garage': False, 'street': False, 'validated': False, 'lot': False, 'valet': False}", "BusinessAcceptsCreditCards": "True", "GoodForKids": "True", "Alcohol": "u'none'", "OutdoorSeating": "False", "RestaurantsGoodForGroups": "True", "RestaurantsTakeOut": "True", "RestaurantsAttire": "u'casual'", "RestaurantsReservations": "True", "RestaurantsPriceRange2": "2"}, "categories": "Japanese, Restaurants, Sushi Bars", "hours": null}
{"business_id": "W_hc8EBepLQNbo-OpOW4Og", "name": "Panera Bread", "address": "4960 William Flynn Hwy", "city": "Allison Park", "state": "PA", "postal_code": "15101", "latitude": 40.602218, "longitude": -79.945617, "stars": 2.0, "review_count": 14, "is_open": 1, "attributes": {"WiFi": "u'free'", "RestaurantsGoodForGroups": "True", "BikeParking": "True", "Alcohol": "u'none'", "Caters": "True", "HasTV": "False", "GoodForMeal": "{'dessert': False, 'latenight': False, 'lunch': False, 'dinner': False, 'brunch': True, 'breakfast': False}", "RestaurantsAttire": "u'casual'", "RestaurantsReservations": "False", "RestaurantsDelivery": "False", "Ambience": "{'romantic': False, 'intimate': False, 'touristy': False, 'hipster': False, 'divey': False, 'classy': False, 'trendy': False, 'upscale': False, 'casual': False}", "OutdoorSeating": "True", "NoiseLevel": "u'loud'", "GoodForKids": "True", "RestaurantsTakeOut": "True", "BusinessAcceptsCreditCards": "True", "BusinessParking": "{'garage': False, 'street': False, 'validated': False, 'lot': False, 'valet': False}", "RestaurantsPriceRange2": "1"}, "categories": "Bagels, Soup, Salad, Restaurants, Food, Sandwiches, Breakfast & Brunch", "hours": {"Monday": "6:0-21:0", "Tuesday": "6:0-21:0", "Wednesday": "6:0-21:0", "Thursday": "6:0-21:0", "Friday": "6:0-21:0", "Saturday": "7:0-21:0", "Sunday": "8:0-20:0"}}
{"business_id": "KISNjnQaKGzmGritl_5OoQ", "name": "Bellisario's Restaurant", "address": "1710 Duncan Ave", "city": "Allison Park", "state": "PA", "postal_code": "15101", "latitude": 40.5661986, "longitude": -79.9982161, "stars": 3.0, "review_count": 5, "is_open": 1, "attributes": {"BusinessAcceptsCreditCards": "True", "RestaurantsGoodForGroups": "True", "GoodForKids": "True"}, "categories": "Fast Food, Italian, Restaurants, Pizza, Seafood", "hours": {"Monday": "11:0-23:0", "Tuesday": "11:0-23:0", "Wednesday": "11:0-23:0", "Thursday": "11:0-23:0", "Friday": "11:0-23:0", "Saturday": "11:0-23:0", "Sunday": "11:0-23:0"}}
{"business_id": "dog6sPiEuJfG7DNl6WwcxQ", "name": "Spadafora's Bar & Restaurant", "address": "3932 William Flynn Hwy", "city": "Allison Park", "state": "PA", "postal_code": "15101", "latitude": 40.5603401, "longitude": -79.9592278, "stars": 4.0, "review_count": 9, "is_open": 0, "attributes": {"BusinessAcceptsCreditCards": "True", "Alcohol": "u'full_bar'", "OutdoorSeating": "True", "Ambience": "{'romantic': False, 'intimate': False, 'touristy': False, 'hipster': False, 'divey': False, 'classy': False, 'trendy': False, 'upscale': False, 'casual': False}", "NoiseLevel": "u'average'", "HasTV": "True", "RestaurantsGoodForGroups": "True", "BusinessParking": "{'garage': False, 'street': False, 'validated': False, 'lot': False, 'valet': False}"}, "categories": "Bars, American (Traditional), Nightlife, Restaurants", "hours": {"Tuesday": "23:30-21:0", "Wednesday": "23:30-21:0", "Thursday": "23:30-21:0", "Friday": "23:30-22:0", "Sunday": "16:0-20:0"}}
{"business_id": "iERMh82Q1fWLSTSmG1Jd0A", "name": "Lyle Blum", "address": "9027 Meadow Oaks Dr", "city": "Allison Park", "state": "PA", "postal_code": "15101", "latitude": 40.5695855955, "longitude": -79.9942094391, "stars": 3.0, "review_count": 4, "is_open": 1, "attributes": null, "categories": "Firewood, Nurseries & Gardening, Home & Garden, Home Services, Shopping, Tree Services", "hours": {"Monday": "0:0-0:0", "Tuesday": "0:0-0:0", "Wednesday": "0:0-0:0", "Thursday": "0:0-0:0", "Friday": "0:0-0:0", "Saturday": "0:0-0:0", "Sunday": "0:0-0:0"}}
{"business_id": "_5NnxC_FwRYPqHedyLwPBA", "name": "GFC Wellness Center", "address": "875 E Ingomar Rd", "city": "Allison Park", "state": "PA", "postal_code": "15101", "latitude": 40.5928471, "longitude": -80.0038077, "stars": 4.5, "review_count": 7, "is_open": 1, "attributes": {"ByAppointmentOnly": "True", "BusinessAcceptsCreditCards": "True"}, "categories": "Doctors, Chiropractors, Health & Medical, Naturopathic/Holistic", "hours": {"Monday": "9:0-18:0", "Tuesday": "9:0-18:0", "Wednesday": "9:0-18:0", "Thursday": "9:0-18:0", "Friday": "9:0-18:0"}}
{"business_id": "X7BA_EijhAWYCNuMiyNgHw", "name": "Kanlaya Thai Kitchen", "address": "4779 William Flynn Hwy", "city": "Allison Park", "state": "PA", "postal_code": "15101", "latitude": 40.5965023, "longitude": -79.9481025, "stars": 4.5, "review_count": 55, "is_open": 1, "attributes": {"HasTV": "False", "RestaurantsPriceRange2": "2", "NoiseLevel": "u'average'", "GoodForMeal": "{'dessert': True, 'latenight': False, 'lunch': True, 'dinner': True, 'brunch': False, 'breakfast': False}", "RestaurantsTableService": "True", "RestaurantsAttire": "u'casual'", "BikeParking": "True", "RestaurantsDelivery": "False", "WiFi": "'no'", "OutdoorSeating": "False", "RestaurantsReservations": "True", "BusinessParking": "{'garage': False, 'street': False, 'validated': False, 'lot': True, 'valet': False}", "Ambience": "{'touristy': False, 'hipster': False, 'romantic': False, 'divey': False, 'intimate': False, 'trendy': False, 'upscale': False, 'classy': True, 'casual': True}", "GoodForKids": "True", "RestaurantsGoodForGroups": "True", "WheelchairAccessible": "True", "BusinessAcceptsCreditCards": "True", "Alcohol": "u'beer_and_wine'", "RestaurantsTakeOut": "True"}, "categories": "Noodles, Restaurants, Seafood, Thai", "hours": {"Monday": "0:0-0:0", "Tuesday": "16:0-21:0", "Wednesday": "16:0-21:0", "Thursday": "16:0-21:0", "Friday": "16:0-21:30", "Saturday": "11:0-21:30", "Sunday": "12:0-21:0"}}
{"business_id": "N8XzoYh6rEdOGL3ZsM0E2A", "name": "Image Nails", "address": "4960 William Flynn Hwy, Ste 3", "city": "Allison Park", "state": "PA", "postal_code": "15101", "latitude": 40.6028126, "longitude": -79.9441029, "stars": 3.5, "review_count": 6, "is_open": 1, "attributes": {"BusinessParking": "{'garage': False, 'street': False, 'validated': False, 'lot': False, 'valet': False}", "BusinessAcceptsCreditCards": "True", "RestaurantsPriceRange2": "2", "ByAppointmentOnly": "False"}, "categories": "Nail Salons, Beauty & Spas", "hours": {"Monday": "10:0-20:0", "Tuesday": "10:0-20:0", "Wednesday": "10:0-20:0", "Thursday": "10:0-20:0", "Friday": "10:0-20:0", "Saturday": "10:0-19:0"}}
{"business_id": "cJF_93-5f5IflEFTlN4Viw", "name": "Casey's Family Restaurant", "address": "3008 William Flynn Hwy", "city": "Allison Park", "state": "PA", "postal_code": "15101", "latitude": 40.5469305, "longitude": -79.9607342, "stars": 3.5, "review_count": 18, "is_open": 1, "attributes": {"RestaurantsReservations": "False", "HasTV": "True", "Ambience": "{'touristy': False, 'hipster': False, 'romantic': False, 'divey': False, 'intimate': False, 'trendy': False, 'upscale': False, 'classy': False, 'casual': False}", "RestaurantsAttire": "'casual'", "OutdoorSeating": "False", "RestaurantsGoodForGroups": "True", "Alcohol": "'full_bar'", "RestaurantsTakeOut": "True", "GoodForKids": "True", "BYOBCorkage": "'no'", "BusinessParking": "{'garage': False, 'street': False, 'validated': False, 'lot': True, 'valet': False}", "RestaurantsPriceRange2": "2", "NoiseLevel": "u'average'", "BusinessAcceptsCreditCards": "True", "BikeParking": "True"}, "categories": "Restaurants, Pizza", "hours": {"Monday": "11:0-22:0", "Tuesday": "11:0-22:0", "Wednesday": "11:0-22:0", "Thursday": "11:0-22:0", "Friday": "11:0-0:0", "Saturday": "15:0-23:0", "Sunday": "15:0-21:0"}}
{"business_id": "u-68bnb3ipPUrmp6b20cig", "name": "Rocky's Route 8", "address": "602 Willruth Dr", "city": "Allison Park", "state": "PA", "postal_code": "15101", "latitude": 40.54296, "longitude": -79.96212, "stars": 3.0, "review_count": 5, "is_open": 1, "attributes": {"RestaurantsReservations": "True", "RestaurantsPriceRange2": "2"}, "categories": "Restaurants, American (New)", "hours": {"Monday": "16:0-22:0", "Tuesday": "16:0-22:0", "Wednesday": "16:0-22:0", "Thursday": "16:0-22:0", "Friday": "16:0-23:0", "Saturday": "4:0-23:0"}}
{"business_id": "QvlJ8s-ps-cIrKRc5efrIw", "name": "Hampton Beer Outlet", "address": "4706 William Flynn Hwy, Ste 1", "city": "Allison Park", "state": "PA", "postal_code": "15101", "latitude": 40.593131, "longitude": -79.946634, "stars": 3.0, "review_count": 5, "is_open": 1, "attributes": {"RestaurantsTakeOut": "True", "BikeParking": "True", "RestaurantsPriceRange2": "2", "BusinessAcceptsCreditCards": "True", "BusinessParking": "{'garage': False, 'street': False, 'validated': False, 'lot': True, 'valet': False}"}, "categories": "Food, Beer, Wine & Spirits", "hours": null}
{"business_id": "rmc_uZnP3iZtqijgkWLGpg", "name": "Yeager Ed Auto Body", "address": "3910 William Flynn Hwy", "city": "Allison Park", "state": "PA", "postal_code": "15101", "latitude": 40.5587662, "longitude": -79.9584615, "stars": 5.0, "review_count": 3, "is_open": 1, "attributes": {"BusinessAcceptsCreditCards": "True"}, "categories": "Car Dealers, Auto Repair, Oil Change Stations, Body Shops, Tires, Automotive", "hours": {"Monday": "8:0-17:0", "Tuesday": "8:0-17:0", "Wednesday": "8:0-17:0", "Thursday": "8:0-17:0", "Friday": "8:0-17:0"}}
{"business_id": "FPOeQA45ZRw_Jh0FBy1QmQ", "name": "Dog Central Grooming", "address": "4750 William Flynn Hwy", "city": "Allison Park", "state": "PA", "postal_code": "15101", "latitude": 40.5958828, "longitude": -79.9466382, "stars": 2.5, "review_count": 3, "is_open": 1, "attributes": null, "categories": "Pet Services, Pet Sitting, Pet Groomers, Pets", "hours": {"Monday": "9:0-19:0", "Tuesday": "9:0-19:0", "Wednesday": "9:0-19:0", "Thursday": "9:0-19:0", "Friday": "9:0-19:0", "Saturday": "9:0-17:0", "Sunday": "9:0-17:0"}}
{"business_id": "m1Aq5ccwAc1reQIY3Zl0Cg", "name": "Cycle Gear", "address": "4848 William Flynn Highway, Unit 3", "city": "Allison Park", "state": "PA", "postal_code": "15101", "latitude": 40.600009, "longitude": -79.946574, "stars": 4.0, "review_count": 6, "is_open": 1, "attributes": {"RestaurantsPriceRange2": "3", "BusinessParking": "{'garage': False, 'street': False, 'validated': False, 'lot': False, 'valet': False}", "BusinessAcceptsCreditCards": "True"}, "categories": "Motorcycle Dealers, Sporting Goods, Shopping, Auto Parts & Supplies, Automotive, Motorcycle Gear, Motorcycle Repair, Tires", "hours": {"Monday": "10:0-19:0", "Tuesday": "10:0-19:0", "Wednesday": "10:0-19:0", "Thursday": "10:0-19:0", "Friday": "10:0-20:0", "Saturday": "9:0-18:0", "Sunday": "10:0-17:0"}}
{"business_id": "yP9UmCxs1PSqljLfpR9R5g", "name": "Mr Tire Auto Service Centers", "address": "4900 William Flynn Hwy", "city": "Allison Park", "state": "PA", "postal_code": "15101", "latitude": 40.6008939, "longitude": -79.9468569, "stars": 2.5, "review_count": 9, "is_open": 1, "attributes": {"BusinessAcceptsCreditCards": "True"}, "categories": "Auto Repair, Tires, Automotive, Oil Change Stations", "hours": {"Monday": "7:30-19:0", "Tuesday": "7:30-19:0", "Wednesday": "7:30-19:0", "Thursday": "7:30-19:0", "Friday": "7:30-19:0", "Saturday": "7:30-19:0", "Sunday": "9:0-17:0"}}
{"business_id": "fjK_OOaKSO9TuoBvWZSTCA", "name": "Titan HVAC", "address": "4367 William Flynn Hwy", "city": "Allison Park", "state": "PA", "postal_code": "15101", "latitude": 40.5799239, "longitude": -79.9531292, "stars": 2.5, "review_count": 5, "is_open": 1, "attributes": {"BusinessAcceptsCreditCards": "False", "ByAppointmentOnly": "False"}, "categories": "Home Services, Heating & Air Conditioning/HVAC", "hours": {"Monday": "8:0-17:0", "Tuesday": "8:0-17:0", "Wednesday": "8:0-17:0", "Thursday": "8:0-17:0", "Friday": "8:0-17:0"}}
{"business_id": "SOPi1SpjaiPesEgrhbcPjQ", "name": "North Park", "address": "303 Pierce Mill Rd", "city": "Allison Park", "state": "PA", "postal_code": "15101", "latitude": 40.6100430163, "longitude": -80.0163459778, "stars": 4.0, "review_count": 41, "is_open": 1, "attributes": {"DogsAllowed": "True", "GoodForKids": "True", "BusinessParking": "{'garage': False, 'street': False, 'validated': False, 'lot': True, 'valet': False}", "BikeParking": "True"}, "categories": "Active Life, Parks, Fishing, Golf, Tennis", "hours": null}
{"business_id": "_NNsF6Od2qpATVOA_nmR0g", "name": "Artistic Styles", "address": "4684 Sylvan Dr", "city": "Allison Park", "state": "PA", "postal_code": "15101", "latitude": 40.5908966184, "longitude": -79.9618330651, "stars": 4.5, "review_count": 4, "is_open": 0, "attributes": {"GoodForKids": "True", "RestaurantsPriceRange2": "2", "BusinessParking": "{'garage': False, 'street': False, 'validated': False, 'lot': False, 'valet': False}", "BusinessAcceptsCreditCards": "True", "ByAppointmentOnly": "True"}, "categories": "Waxing, Beauty & Spas, Hair Salons, Hair Removal", "hours": {"Tuesday": "10:0-20:0", "Wednesday": "10:0-20:0", "Thursday": "0:0-20:0", "Friday": "9:0-15:0", "Saturday": "9:0-15:0"}}
{"business_id": "Gh752sLvWvzl_n-CHWYwyA", "name": "Milano's Pizza", "address": "3616 William Flynn Hwy", "city": "Allison Park", "state": "PA", "postal_code": "15101", "latitude": 40.553858, "longitude": -79.957986, "stars": 4.0, "review_count": 22, "is_open": 1, "attributes": {"BusinessAcceptsCreditCards": "True", "BusinessAcceptsBitcoin": "False", "HasTV": "True", "BusinessParking": "{'garage': False, 'street': False, 'validated': False, 'lot': True, 'valet': False}", "RestaurantsTakeOut": "True", "Ambience": "{'touristy': False, 'hipster': False, 'romantic': False, 'divey': False, 'intimate': False, 'trendy': False, 'upscale': False, 'classy': False, 'casual': True}", "RestaurantsAttire": "u'casual'", "NoiseLevel": "u'average'", "Caters": "False", "Alcohol": "u'none'", "RestaurantsGoodForGroups": "True", "WiFi": "u'free'", "GoodForMeal": "{'dessert': False, 'latenight': False, 'lunch': True, 'dinner': True, 'brunch': False, 'breakfast': False}", "OutdoorSeating": "False", "BikeParking": "False", "RestaurantsReservations": "False", "RestaurantsDelivery": "True", "GoodForKids": "True", "RestaurantsPriceRange2": "1"}, "categories": "Restaurants, Salad, Chicken Wings, Pizza", "hours": {"Monday": "0:0-0:0", "Tuesday": "11:0-22:0", "Wednesday": "11:0-22:0", "Thursday": "11:0-23:0", "Friday": "11:0-23:0", "Saturday": "11:0-23:0", "Sunday": "15:0-20:0"}}
{"business_id": "59nyxyWXc_wrY1awMTl5rA", "name": "Tags & Title Transfer Company", "address": "1701 Duncan Ave", "city": "Allison Park", "state": "PA", "postal_code": "15101", "latitude": 40.567, "longitude": -79.9994339, "stars": 2.5, "review_count": 3, "is_open": 1, "attributes": {"BusinessAcceptsCreditCards": "True"}, "categories": "Public Services & Government, Local Services, Financial Services, Departments of Motor Vehicles, Insurance, Notaries", "hours": {"Monday": "9:0-17:0", "Tuesday": "9:0-19:0", "Wednesday": "9:0-19:0", "Thursday": "9:0-19:0", "Friday": "9:0-17:0", "Saturday": "9:0-16:0"}}
{"business_id": "0v54ox7EU7t_jDTwJdpfvQ", "name": "Tan Factory", "address": "2412 Ferguson Rd, Ste 8", "city": "Allison Park", "state": "PA", "postal_code": "15101", "latitude": 40.555296, "longitude": -79.9723827, "stars": 3.5, "review_count": 3, "is_open": 1, "attributes": {"BusinessAcceptsCreditCards": "True", "BikeParking": "True", "RestaurantsPriceRange2": "2", "BusinessParking": "{'garage': False, 'street': False, 'validated': False, 'lot': False, 'valet': False}", "ByAppointmentOnly": "False"}, "categories": "Beauty & Spas, Tanning", "hours": {"Monday": "10:0-19:0", "Tuesday": "10:0-19:0", "Wednesday": "10:0-19:0", "Thursday": "10:0-19:0", "Friday": "10:0-19:0", "Saturday": "10:0-19:0"}}
{"business_id": "NZ7zpdYRCW7jxX45Wb8rPQ", "name": "The Pour House", "address": "4655 William Flynn Hwy", "city": "Allison Park", "state": "PA", "postal_code": "15101", "latitude": 40.5905329, "longitude": -79.9483052, "stars": 2.5, "review_count": 9, "is_open": 1, "attributes": {"OutdoorSeating": "False", "RestaurantsPriceRange2": "1", "BusinessParking": "{'garage': False, 'street': False, 'validated': False, 'lot': False, 'valet': False}", "HasTV": "True", "Alcohol": "'full_bar'", "NoiseLevel": "u'very_loud'", "BikeParking": "False", "BusinessAcceptsCreditCards": "True", "RestaurantsReservations": "False", "RestaurantsGoodForGroups": "True", "Ambience": "{'romantic': False, 'intimate': False, 'classy': False, 'hipster': False, 'divey': False, 'touristy': False, 'trendy': False, 'upscale': False, 'casual': False}"}, "categories": "Nightlife, Piano Bars, Karaoke, Dance Clubs, Bars", "hours": null}
{"business_id": "SFDVdrBpuE8msvKjkD4MeQ", "name": "Kitchen Fair", "address": "900 E Elfinwild Rd", "city": "Allison Park", "state": "PA", "postal_code": "15101", "latitude": 40.549308, "longitude": -79.959146, "stars": 2.5, "review_count": 3, "is_open": 1, "attributes": null, "categories": "Kitchen & Bath, Home Services, Cabinetry, Countertop Installation, Home & Garden, Contractors, Shopping", "hours": {"Monday": "9:0-20:0", "Tuesday": "9:0-17:0", "Thursday": "9:0-20:0", "Friday": "9:0-17:0", "Saturday": "9:0-14:0"}}
{"business_id": "RI5BuVdoM9vcagbZRjJ5mQ", "name": "Jin's Wonderful Nail and Spa", "address": "1701 Duncan Ave, Ste 18", "city": "Allison Park", "state": "PA", "postal_code": "15101", "latitude": 40.5673415675, "longitude": -79.9986783289, "stars": 4.0, "review_count": 32, "is_open": 1, "attributes": {"BusinessAcceptsCreditCards": "True", "ByAppointmentOnly": "False", "RestaurantsPriceRange2": "2", "BusinessParking": "{'garage': False, 'street': False, 'validated': False, 'lot': False, 'valet': False}"}, "categories": "Nail Salons, Beauty & Spas", "hours": {"Monday": "9:0-20:0", "Tuesday": "9:0-20:0", "Wednesday": "9:0-20:0", "Thursday": "9:0-20:0", "Friday": "9:0-20:0", "Saturday": "9:0-20:0", "Sunday": "10:0-18:0"}}
{"business_id": "PPzBpOqEcNfOw6Znr8-bNA", "name": "Allison Park Flowers & Gifts", "address": "3880 William Flynn Hwy", "city": "Allison Park", "state": "PA", "postal_code": "15101", "latitude": 40.5580559, "longitude": -79.9588238, "stars": 2.0, "review_count": 4, "is_open": 1, "attributes": {"RestaurantsDelivery": "True"}, "categories": "Florists, Shopping, Flowers & Gifts, Floral Designers, Arts & Crafts, Event Planning & Services, Cards & Stationery, Gift Shops", "hours": {"Monday": "9:0-17:0", "Tuesday": "9:0-17:0", "Wednesday": "9:0-17:0", "Thursday": "9:0-17:0", "Friday": "9:0-17:0", "Saturday": "9:0-12:0"}}
{"business_id": "4u7JRHBeN8N92JTIufEAjw", "name": "Gregg's Heating & Cooling", "address": "2789 E Elfinwild Rd", "city": "Allison Park", "state": "PA", "postal_code": "15101", "latitude": 40.554241, "longitude": -79.94822, "stars": 4.0, "review_count": 4, "is_open": 0, "attributes": null, "categories": "Home Services, Heating & Air Conditioning/HVAC", "hours": null}
{"business_id": "CZ6k4-kTX4on3_COo4YEpA", "name": "Arkham Gift Shoppe", "address": "3973 William Flynn Hwy, Ste 2", "city": "Allison Park", "state": "PA", "postal_code": "15101", "latitude": 40.5622204, "longitude": -79.9595464, "stars": 5.0, "review_count": 5, "is_open": 1, "attributes": {"RestaurantsPriceRange2": "1", "BikeParking": "True", "BusinessParking": "{'garage': False, 'street': False, 'validated': False, 'lot': True, 'valet': False}", "BusinessAcceptsCreditCards": "True"}, "categories": "Shopping, Books, Mags, Music & Video, Comic Books, Toy Stores", "hours": {"Wednesday": "12:0-19:0", "Thursday": "13:0-19:0", "Friday": "13:0-19:0", "Saturday": "12:0-18:0", "Sunday": "12:0-17:0"}}
{"business_id": "IinjfVt_theqCNWtO988Zw", "name": "PNC Bank", "address": "4960 William-flynn Hwy, Ste 33", "city": "Allison Park", "state": "PA", "postal_code": "15101", "latitude": 40.60266, "longitude": -79.946717, "stars": 3.5, "review_count": 3, "is_open": 1, "attributes": null, "categories": "Banks & Credit Unions, Investing, Real Estate, Mortgage Brokers, Financial Services, Home Services", "hours": {"Monday": "9:0-18:0", "Tuesday": "9:0-18:0", "Wednesday": "9:0-18:0", "Thursday": "9:0-18:0", "Friday": "9:0-18:0", "Saturday": "9:0-15:0"}}
{"business_id": "S2uJ9AWcoI7toQRVwohkBA", "name": "Katie's Clay Studio", "address": "3812 William Flynn Hwy, Bldg 1, Ste 100", "city": "Allison Park", "state": "PA", "postal_code": "15101", "latitude": 40.5554274, "longitude": -79.9575483, "stars": 3.5, "review_count": 3, "is_open": 1, "attributes": {"RestaurantsPriceRange2": "1", "BusinessAcceptsBitcoin": "False", "BusinessParking": "{'garage': False, 'street': False, 'validated': False, 'lot': True, 'valet': False}", "BusinessAcceptsCreditCards": "True", "BikeParking": "False"}, "categories": "Arts & Crafts, Art Galleries, Arts & Entertainment, Shopping, Hobby Shops", "hours": {"Tuesday": "12:0-16:0", "Wednesday": "12:0-17:0", "Thursday": "12:0-18:0", "Friday": "12:0-18:0", "Saturday": "12:0-17:0"}}
{"business_id": "n8RNQUlNH8ORk9DXX0qL8g", "name": "Great Clips", "address": "4960 William Flynn Hwy, Ste 20", "city": "Allison Park", "state": "PA", "postal_code": "15101", "latitude": 40.602661, "longitude": -79.945513, "stars": 2.5, "review_count": 4, "is_open": 1, "attributes": {"ByAppointmentOnly": "False"}, "categories": "Hair Salons, Barbers, Beauty & Spas", "hours": null}
{"business_id": "5bu9rsWu2D-BaLIg1qUL8A", "name": "Zang Auto Body", "address": "2894 Wildwood Road Ext", "city": "Allison Park", "state": "PA", "postal_code": "15101", "latitude": 40.5903223, "longitude": -79.9455744, "stars": 5.0, "review_count": 6, "is_open": 1, "attributes": {"BusinessAcceptsCreditCards": "True"}, "categories": "Automotive, Towing, Auto Repair, Body Shops", "hours": {"Monday": "0:0-0:0", "Tuesday": "0:0-0:0", "Wednesday": "0:0-0:0", "Thursday": "0:0-0:0", "Friday": "0:0-0:0", "Saturday": "0:0-0:0", "Sunday": "0:0-0:0"}}
{"business_id": "XzCAgk_JBVVuF1s9NV6gYg", "name": "Mascari Auto Center", "address": "8700 Thompson Run Rd", "city": "Allison Park", "state": "PA", "postal_code": "15101", "latitude": 40.5651266052, "longitude": -79.9987581901, "stars": 2.5, "review_count": 6, "is_open": 1, "attributes": {"BusinessAcceptsCreditCards": "True"}, "categories": "Car Rental, Body Shops, Hotels & Travel, Auto Repair, Automotive", "hours": {"Monday": "8:30-17:30", "Tuesday": "8:30-17:30", "Wednesday": "8:30-17:30", "Thursday": "8:30-17:30", "Friday": "8:30-17:30"}}
{"business_id": "dv9RZ2BL9jT70SrRkjo_xQ", "name": "Salon U", "address": "Shoppers Plz", "city": "Allison Park", "state": "PA", "postal_code": "15101", "latitude": 40.602048, "longitude": -79.945656, "stars": 4.0, "review_count": 4, "is_open": 1, "attributes": {"BusinessAcceptsCreditCards": "True", "GoodForKids": "True", "RestaurantsPriceRange2": "3", "BikeParking": "True", "BusinessParking": "{'garage': False, 'street': False, 'validated': False, 'lot': False, 'valet': False}"}, "categories": "Beauty & Spas, Hair Salons", "hours": {"Tuesday": "9:0-20:0", "Wednesday": "9:0-20:0", "Thursday": "9:0-20:0", "Friday": "9:0-20:0", "Saturday": "8:0-16:0"}}
{"business_id": "7s5396BO2bYxyjMwZeWwmw", "name": "Bittner Vision Associates", "address": "2384 Ferguson Rd", "city": "Allison Park", "state": "PA", "postal_code": "15101", "latitude": 40.5559344, "longitude": -79.97308, "stars": 5.0, "review_count": 7, "is_open": 1, "attributes": {"BusinessAcceptsCreditCards": "True", "ByAppointmentOnly": "True", "BusinessParking": "{'garage': False, 'street': False, 'validated': False, 'lot': True, 'valet': False}", "RestaurantsPriceRange2": "2"}, "categories": "Optometrists, Health & Medical, Shopping, Laser Eye Surgery/Lasik, Eyewear & Opticians", "hours": {"Monday": "12:30-20:30", "Tuesday": "8:30-16:30", "Wednesday": "8:30-16:30", "Thursday": "8:30-16:30", "Friday": "8:30-16:30", "Saturday": "8:0-12:0"}}
{"business_id": "TbBK3FBvx9gKmZ1enHmq9w", "name": "Allison Park Church", "address": "2326 Duncan Ave", "city": "Allison Park", "state": "PA", "postal_code": "15101", "latitude": 40.565397, "longitude": -79.9756616, "stars": 5.0, "review_count": 3, "is_open": 1, "attributes": null, "categories": "Churches, Religious Organizations", "hours": {"Monday": "9:0-16:0", "Tuesday": "9:0-16:0", "Wednesday": "19:0-21:0", "Thursday": "9:0-16:0", "Friday": "9:0-16:0", "Saturday": "18:0-20:0", "Sunday": "11:0-13:30"}}
{"business_id": "InJU6XGqChZjT9O9PRybLw", "name": "Pep Boys Auto Service & Tire", "address": "4966 William Flynn Hwy", "city": "Allison Park", "state": "PA", "postal_code": "15101", "latitude": 40.603722, "longitude": -79.946842, "stars": 3.0, "review_count": 7, "is_open": 1, "attributes": {"BusinessAcceptsCreditCards": "True"}, "categories": "Auto Repair, Automotive, Tires, Oil Change Stations", "hours": {"Monday": "7:0-18:0", "Tuesday": "7:0-18:0", "Wednesday": "7:0-18:0", "Thursday": "7:0-18:0", "Friday": "7:0-18:0", "Saturday": "7:0-17:0", "Sunday": "9:0-16:0"}}
{"business_id": "oQKOijnFplXhmobb9Qf2gQ", "name": "Stak Shak Table and Taps", "address": "2684 Wildwood Rd", "city": "Allison Park", "state": "PA", "postal_code": "15101", "latitude": 40.5899253, "longitude": -79.9569902, "stars": 3.5, "review_count": 26, "is_open": 0, "attributes": {"NoiseLevel": "u'quiet'", "HappyHour": "True", "BusinessParking": "{'garage': False, 'street': False, 'validated': False, 'lot': True, 'valet': False}", "WiFi": "u'free'", "Caters": "False", "OutdoorSeating": "False", "RestaurantsGoodForGroups": "True", "BikeParking": "False", "GoodForKids": "True", "GoodForMeal": "{'dessert': False, 'latenight': False, 'lunch': False, 'dinner': False, 'brunch': False, 'breakfast': False}", "Ambience": "{'touristy': False, 'hipster': False, 'romantic': False, 'divey': False, 'intimate': False, 'trendy': True, 'upscale': False, 'classy': False, 'casual': False}", "Alcohol": "u'full_bar'", "WheelchairAccessible": "False", "BusinessAcceptsBitcoin": "False", "Smoking": "u'no'", "RestaurantsTakeOut": "True", "CoatCheck": "False", "RestaurantsTableService": "True", "DogsAllowed": "False", "RestaurantsReservations": "True", "RestaurantsAttire": "u'casual'", "RestaurantsDelivery": "False", "BusinessAcceptsCreditCards": "True", "Music": "{'dj': False, 'background_music': False, 'no_music': False, 'jukebox': False, 'live': False, 'video': False, 'karaoke': False}", "GoodForDancing": "False", "RestaurantsPriceRange2": "2", "HasTV": "True"}, "categories": "Beer Bar, Comfort Food, Bars, Beer, Wine & Spirits, Restaurants, American (Traditional), Sandwiches, Fish & Chips, Nightlife, Food", "hours": {"Monday": "16:0-21:0", "Tuesday": "16:0-22:0", "Wednesday": "16:0-22:0", "Thursday": "16:0-22:0", "Friday": "16:0-0:0", "Saturday": "11:0-0:0", "Sunday": "11:0-21:0"}}
{"business_id": "O_EC0gFko7gzNqgppmyLEA", "name": "Rocky's", "address": "602 Willruth Dr", "city": "Allison Park", "state": "PA", "postal_code": "15101", "latitude": 40.5439909, "longitude": -79.9632142, "stars": 3.5, "review_count": 3, "is_open": 1, "attributes": {"RestaurantsAttire": "'casual'", "RestaurantsReservations": "False", "Alcohol": "'full_bar'", "BikeParking": "True", "GoodForKids": "True", "OutdoorSeating": "True", "RestaurantsGoodForGroups": "True", "BusinessParking": "{'garage': False, 'street': False, 'validated': False, 'lot': False, 'valet': False}", "WiFi": "'no'", "RestaurantsDelivery": "False", "RestaurantsTakeOut": "True", "BusinessAcceptsCreditCards": "True", "RestaurantsPriceRange2": "2", "NoiseLevel": "u'quiet'", "Ambience": "{'touristy': False, 'hipster': False, 'romantic': False, 'divey': False, 'intimate': False, 'trendy': False, 'upscale': False, 'classy': False, 'casual': False}", "HasTV": "True"}, "categories": "American (New), Restaurants", "hours": null}
{"business_id": "AKThbDjd3WRUBOYOLOjb8A", "name": "Monte Cello's Hampton", "address": "4655 William Flynn Hwy", "city": "Allison Park", "state": "PA", "postal_code": "15101", "latitude": 40.512494, "longitude": -79.993358, "stars": 3.0, "review_count": 9, "is_open": 1, "attributes": {"HasTV": "True", "BusinessAcceptsCreditCards": "True", "RestaurantsAttire": "u'casual'", "RestaurantsPriceRange2": "1", "Ambience": "{'romantic': False, 'intimate': False, 'touristy': False, 'hipster': False, 'divey': False, 'classy': False, 'trendy': False, 'upscale': False, 'casual': False}", "GoodForKids": "True", "NoiseLevel": "u'average'", "Alcohol": "u'full_bar'", "OutdoorSeating": "False", "BusinessParking": "{'garage': False, 'street': False, 'validated': False, 'lot': False, 'valet': False}", "RestaurantsGoodForGroups": "True", "RestaurantsTakeOut": "True"}, "categories": "Pizza, American (Traditional), Italian, Restaurants", "hours": {"Monday": "11:0-21:0", "Tuesday": "11:0-21:0", "Wednesday": "11:0-21:0", "Thursday": "11:0-21:0", "Friday": "11:0-23:0", "Saturday": "11:0-23:0", "Sunday": "12:0-21:0"}}
{"business_id": "WL5n6c5FZWTdsLCE2GoGoQ", "name": "Pizzarita", "address": "580 Burchfield Rd", "city": "Allison Park", "state": "PA", "postal_code": "15101", "latitude": 40.5445287, "longitude": -79.9628682, "stars": 3.0, "review_count": 14, "is_open": 1, "attributes": {"Ambience": "{'romantic': False, 'intimate': False, 'touristy': False, 'hipster': False, 'divey': False, 'classy': False, 'trendy': False, 'upscale': False, 'casual': True}", "OutdoorSeating": "True", "WiFi": "u'free'", "RestaurantsAttire": "u'casual'", "RestaurantsReservations": "False", "GoodForKids": "True", "RestaurantsTakeOut": "True", "RestaurantsPriceRange2": "1", "RestaurantsGoodForGroups": "True", "BikeParking": "True", "RestaurantsDelivery": "True", "NoiseLevel": "u'average'", "Alcohol": "u'none'", "HasTV": "True", "BusinessParking": "{'garage': False, 'street': False, 'validated': False, 'lot': True, 'valet': False}", "Caters": "True", "BusinessAcceptsCreditCards": "True"}, "categories": "Pizza, Restaurants", "hours": null}
{"business_id": "P3QI1eYJBwTIwhzowMcqcA", "name": "Allegheny County Memorial Park", "address": "1600 Duncan Ave", "city": "Allison Park", "state": "PA", "postal_code": "15101", "latitude": 40.5668435, "longitude": -79.9977645, "stars": 1.0, "review_count": 3, "is_open": 1, "attributes": {"BusinessAcceptsBitcoin": "False", "BusinessAcceptsCreditCards": "True"}, "categories": "Funeral Services & Cemeteries, Local Services", "hours": {"Monday": "9:0-17:0", "Tuesday": "9:0-17:0", "Wednesday": "9:0-17:0", "Thursday": "9:0-17:0", "Friday": "9:0-17:0", "Saturday": "9:0-17:0"}}
{"business_id": "zW8KLXqtZRXmIuJtSPetCQ", "name": "The Home Depot", "address": "4960 William Flynn Hwy", "city": "Allison Park", "state": "PA", "postal_code": "15101", "latitude": 40.6029078, "longitude": -79.9439529, "stars": 2.5, "review_count": 3, "is_open": 1, "attributes": {"RestaurantsPriceRange2": "3", "BusinessAcceptsCreditCards": "True", "BusinessParking": "{'garage': False, 'street': False, 'validated': False, 'lot': False, 'valet': False}", "BikeParking": "True"}, "categories": "Shopping, Hardware Stores, Home & Garden, Nurseries & Gardening, Appliances", "hours": {"Monday": "6:0-21:0", "Tuesday": "6:0-21:0", "Wednesday": "6:0-21:0", "Thursday": "6:0-21:0", "Friday": "6:0-21:0", "Saturday": "6:0-21:0", "Sunday": "8:0-19:0"}}
{"business_id": "QQIwwU1tyOyKwr_sgqfYmw", "name": "Wild Sage", "address": "3932 Rt 8", "city": "Allison Park", "state": "PA", "postal_code": "15101", "latitude": 40.560094, "longitude": -79.9592196, "stars": 4.5, "review_count": 34, "is_open": 0, "attributes": {"GoodForDancing": "False", "WheelchairAccessible": "True", "DogsAllowed": "False", "WiFi": "u'free'", "CoatCheck": "False", "BikeParking": "True", "Caters": "False", "HappyHour": "True", "HasTV": "True", "Smoking": "u'outdoor'", "NoiseLevel": "u'average'", "Music": "{'dj': False}", "Alcohol": "u'full_bar'", "RestaurantsDelivery": "False", "BusinessAcceptsCreditCards": "True", "GoodForMeal": "{'dessert': False, 'latenight': False, 'lunch': False, 'dinner': False, 'brunch': False, 'breakfast': False}", "RestaurantsReservations": "True", "RestaurantsTableService": "True", "RestaurantsPriceRange2": "2", "RestaurantsTakeOut": "True", "GoodForKids": "False", "OutdoorSeating": "True", "Ambience": "{'romantic': False, 'intimate': True, 'classy': False, 'hipster': False, 'divey': False, 'touristy': False, 'trendy': False, 'upscale': False, 'casual': False}", "RestaurantsGoodForGroups": "True", "BusinessParking": "{'garage': False, 'street': False, 'validated': False, 'lot': True, 'valet': False}", "RestaurantsAttire": "'casual'"}, "categories": "Salad, Nightlife, American (Traditional), American (New), Restaurants, Bars", "hours": {"Tuesday": "11:30-21:0", "Wednesday": "11:30-21:0", "Thursday": "11:30-21:0", "Friday": "11:30-22:0", "Saturday": "16:30-22:0"}}
{"business_id": "cbCEAqRlT8WZPuZAOfcMZA", "name": "CleanTown USA", "address": "4867 William Flynn Hwy", "city": "Allison Park", "state": "PA", "postal_code": "15101", "latitude": 40.601056, "longitude": -79.948288, "stars": 3.0, "review_count": 28, "is_open": 1, "attributes": {"BusinessAcceptsCreditCards": "True"}, "categories": "Car Wash, Automotive, Auto Detailing", "hours": {"Monday": "8:0-17:30", "Tuesday": "8:0-17:30", "Wednesday": "8:0-17:30", "Thursday": "8:0-17:30", "Friday": "8:0-17:30", "Saturday": "8:0-17:0", "Sunday": "10:0-17:0"}}
{"business_id": "OQ_2_JzEqJrjG5z93cEqmQ", "name": "OTB At the Boathouse", "address": "10301 Pearce Mill Rd", "city": "Allison Park", "state": "PA", "postal_code": "15101", "latitude": 40.6046132195, "longitude": -80.007391423, "stars": 3.5, "review_count": 215, "is_open": 1, "attributes": {"HasTV": "True", "RestaurantsReservations": "False", "RestaurantsPriceRange2": "2", "Caters": "False", "RestaurantsDelivery": "False", "BusinessParking": "{'garage': False, 'street': False, 'validated': False, 'lot': True, 'valet': False}", "OutdoorSeating": "True", "RestaurantsAttire": "u'casual'", "Alcohol": "u'full_bar'", "GoodForKids": "True", "NoiseLevel": "u'average'", "Ambience": "{'romantic': False, 'intimate': False, 'classy': False, 'hipster': False, 'divey': False, 'touristy': False, 'trendy': False, 'upscale': False, 'casual': True}", "BusinessAcceptsCreditCards": "True", "BikeParking": "True", "RestaurantsGoodForGroups": "True", "RestaurantsTakeOut": "True", "WiFi": "'free'", "GoodForMeal": "{'dessert': False, 'latenight': False, 'lunch': True, 'dinner': False, 'brunch': False, 'breakfast': False}"}, "categories": "American (Traditional), Restaurants, Sandwiches, Vegetarian, American (New)", "hours": {"Monday": "11:0-21:0", "Tuesday": "11:0-21:0", "Wednesday": "11:0-21:0", "Thursday": "11:0-21:0", "Friday": "11:0-22:0", "Saturday": "8:0-22:0", "Sunday": "8:0-16:0"}}
{"business_id": "GdkLXpf4M5iVLUICs1Do6w", "name": "Starbucks", "address": "4655 William Flynn Highway, 100", "city": "Allison Park", "state": "PA", "postal_code": "15101", "latitude": 40.590933, "longitude": -79.948742, "stars": 3.0, "review_count": 6, "is_open": 1, "attributes": {"OutdoorSeating": "True", "WiFi": "'free'", "BusinessAcceptsCreditCards": "True", "RestaurantsTakeOut": "True", "RestaurantsDelivery": "False", "BusinessParking": "{'garage': False, 'street': False, 'validated': False, 'lot': False, 'valet': False}", "BikeParking": "True", "RestaurantsPriceRange2": "2"}, "categories": "Food, Coffee & Tea, Coffee Roasteries, Bakeries", "hours": {"Monday": "5:0-22:0", "Tuesday": "5:0-22:0", "Wednesday": "5:0-22:0", "Thursday": "5:0-22:0", "Friday": "6:0-22:0", "Saturday": "6:0-21:0", "Sunday": "5:0-22:0"}}
{"business_id": "99J4-BMMtdC0UWoWfdlnzQ", "name": "Monro Muffler Brake & Service", "address": "4913 Rte 8", "city": "Allison Park", "state": "PA", "postal_code": "15101", "latitude": 40.567677, "longitude": -79.954555, "stars": 3.0, "review_count": 6, "is_open": 1, "attributes": {"BusinessAcceptsCreditCards": "True"}, "categories": "Auto Repair, Automotive, Tires, Oil Change Stations", "hours": {"Monday": "7:30-19:0", "Tuesday": "7:30-19:0", "Wednesday": "7:30-19:0", "Thursday": "7:30-19:0", "Friday": "7:30-19:0", "Saturday": "7:30-18:0", "Sunday": "9:0-17:0"}}
{"business_id": "_UkSUO54LbdIfcQPJztPBg", "name": "Spay Neuter Clinic: North Hills", "address": "3967 William Flynn Hwy", "city": "Allison Park", "state": "PA", "postal_code": "15101", "latitude": 40.6065111, "longitude": -80.0523139, "stars": 4.0, "review_count": 12, "is_open": 1, "attributes": null, "categories": "Veterinarians, Pets, Pet Services", "hours": {"Monday": "7:0-18:0", "Tuesday": "7:0-18:0", "Wednesday": "7:0-18:0", "Thursday": "7:0-18:0", "Friday": "7:0-18:0"}}
{"business_id": "wuEJ2XIM97g9iIhDRQYoYA", "name": "K Asian Bistro", "address": "4706 William Flynn Hwy, Ste 3", "city": "Allison Park", "state": "PA", "postal_code": "15101", "latitude": 40.5936265, "longitude": -79.9469005, "stars": 4.5, "review_count": 78, "is_open": 1, "attributes": {"BusinessAcceptsCreditCards": "True", "RestaurantsGoodForGroups": "True", "NoiseLevel": "u'average'", "RestaurantsAttire": "u'casual'", "GoodForKids": "True", "OutdoorSeating": "False", "RestaurantsPriceRange2": "2", "Alcohol": "u'none'", "GoodForMeal": "{'dessert': False, 'latenight': False, 'lunch': True, 'dinner': True, 'brunch': False, 'breakfast': False}", "RestaurantsReservations": "True", "WiFi": "u'free'", "Ambience": "{'touristy': False, 'hipster': False, 'romantic': False, 'divey': False, 'intimate': False, 'trendy': False, 'upscale': False, 'classy': False, 'casual': False}", "HasTV": "True", "RestaurantsTakeOut": "True", "RestaurantsTableService": "True", "BusinessParking": "{'garage': False, 'street': False, 'validated': False, 'lot': True, 'valet': False}", "RestaurantsDelivery": "False", "BikeParking": "False", "Caters": "True"}, "categories": "Sushi Bars, Cafes, Thai, Japanese, Asian Fusion, Restaurants", "hours": {"Monday": "11:0-21:30", "Tuesday": "11:0-21:30", "Wednesday": "11:0-21:30", "Thursday": "11:0-21:30", "Friday": "11:0-22:30", "Saturday": "11:0-22:30", "Sunday": "11:0-21:30"}}
{"business_id": "KkaUR400sUK-ntGu7UhPTA", "name": "Quilt Company", "address": "3940 Middle Rd", "city": "Allison Park", "state": "PA", "postal_code": "15101", "latitude": 40.5614542, "longitude": -79.9283746, "stars": 2.5, "review_count": 3, "is_open": 1, "attributes": null, "categories": "Fabric Stores, Arts & Crafts, Shopping", "hours": {"Monday": "9:0-17:0", "Tuesday": "9:0-17:0", "Wednesday": "9:0-17:0", "Thursday": "9:0-17:0", "Friday": "9:0-17:0", "Saturday": "9:0-17:0"}}
{"business_id": "yjdh-nNClTav8OFf1gkezg", "name": "Driver's License Center", "address": "1701 Duncan Ave", "city": "Allison Park", "state": "PA", "postal_code": "15101", "latitude": 40.5673178, "longitude": -79.9994392, "stars": 2.5, "review_count": 6, "is_open": 1, "attributes": null, "categories": "Public Services & Government, Departments of Motor Vehicles", "hours": null}
{"business_id": "1UrXBPneHKLgmr-OYZUHmA", "name": "MAC Diner", "address": "4848 Rt 8, William Flinn Hwy", "city": "Allison Park", "state": "PA", "postal_code": "15101", "latitude": 40.592106, "longitude": -79.947513, "stars": 3.0, "review_count": 12, "is_open": 0, "attributes": {"NoiseLevel": "u'average'", "RestaurantsPriceRange2": "2", "OutdoorSeating": "False", "Caters": "False", "RestaurantsTakeOut": "True", "RestaurantsDelivery": "False", "WiFi": "u'free'", "BusinessAcceptsCreditCards": "True", "Alcohol": "u'none'", "RestaurantsAttire": "u'casual'", "BusinessParking": "{'garage': False, 'street': False, 'validated': False, 'lot': True, 'valet': False}", "GoodForKids": "True", "RestaurantsReservations": "False", "RestaurantsGoodForGroups": "True", "Ambience": "{'romantic': False, 'intimate': False, 'touristy': False, 'hipster': False, 'divey': False, 'classy': False, 'trendy': False, 'upscale': False, 'casual': False}", "HasTV": "False"}, "categories": "American (Traditional), Restaurants, Diners", "hours": {"Monday": "7:0-20:0", "Tuesday": "7:0-20:0", "Wednesday": "7:0-20:0", "Thursday": "7:0-20:0", "Friday": "7:0-20:0", "Saturday": "7:0-20:0", "Sunday": "7:0-20:0"}}
{"business_id": "CxxAzUN3J38UTZB6MyGB3Q", "name": "Dudt P J Bakery", "address": "1701 Duncan Ave", "city": "Allison Park", "state": "PA", "postal_code": "15101", "latitude": 40.5673828, "longitude": -79.999307, "stars": 3.0, "review_count": 11, "is_open": 0, "attributes": {"BikeParking": "True", "RestaurantsPriceRange2": "2", "BusinessAcceptsCreditCards": "True", "RestaurantsDelivery": "False", "BusinessParking": "{'garage': False, 'street': False, 'validated': False, 'lot': False, 'valet': False}"}, "categories": "Bakeries, Food, Restaurants, Donuts", "hours": null}
{"business_id": "DdPL4rCRoF5MTwarsYJ4Bg", "name": "VCA Duncan Manor Animal Hospital", "address": "1720 Ferguson Rd", "city": "Allison Park", "state": "PA", "postal_code": "15101", "latitude": 40.565132, "longitude": -79.997768, "stars": 4.0, "review_count": 7, "is_open": 1, "attributes": null, "categories": "Veterinarians, Pets", "hours": {"Monday": "8:0-20:0", "Tuesday": "8:0-20:0", "Wednesday": "8:0-20:0", "Thursday": "8:0-20:0", "Friday": "8:0-18:0", "Saturday": "8:0-13:0"}}
{"business_id": "KX08cD-NSitdd2TXw3uXiA", "name": "Seahorse", "address": "4906 William Flynn Hwy", "city": "Allison Park", "state": "PA", "postal_code": "15101", "latitude": 40.6011639, "longitude": -79.9468223, "stars": 3.5, "review_count": 3, "is_open": 0, "attributes": null, "categories": "Pets, Pet Stores", "hours": {"Monday": "9:0-17:0", "Tuesday": "9:0-17:0", "Wednesday": "9:0-17:0", "Thursday": "9:0-17:0", "Friday": "9:0-17:0"}}
{"business_id": "WzoI8P_hHYyNlb11y9g3hA", "name": "Rite Aid", "address": "1701 Duncan Ave", "city": "Allison Park", "state": "PA", "postal_code": "15101", "latitude": 40.5673928518, "longitude": -79.9987165096, "stars": 4.0, "review_count": 4, "is_open": 1, "attributes": {"RestaurantsTakeOut": "True", "BikeParking": "True", "BusinessAcceptsCreditCards": "True", "Caters": "False", "BusinessParking": "{'garage': False, 'street': False, 'validated': False, 'lot': False, 'valet': False}", "RestaurantsPriceRange2": "3"}, "categories": "Drugstores, Shopping, Convenience Stores, Food", "hours": {"Monday": "8:0-21:0", "Tuesday": "8:0-21:0", "Wednesday": "8:0-21:0", "Thursday": "8:0-21:0", "Friday": "8:0-21:0", "Saturday": "8:0-21:0", "Sunday": "8:0-17:0"}}
{"business_id": "fjRKwGRjZO6ffMbXuBmZKw", "name": "Thirsty's Bar & Grill", "address": "2412 Ferguson Rd", "city": "Allison Park", "state": "PA", "postal_code": "15101", "latitude": 40.555296, "longitude": -79.9723827, "stars": 2.5, "review_count": 15, "is_open": 1, "attributes": {"BusinessAcceptsCreditCards": "True", "RestaurantsGoodForGroups": "True", "NoiseLevel": "u'average'", "BikeParking": "True", "HasTV": "True", "RestaurantsReservations": "False", "OutdoorSeating": "False", "RestaurantsPriceRange2": "2", "Ambience": "{'romantic': False, 'intimate': False, 'classy': False, 'hipster': False, 'divey': False, 'touristy': False, 'trendy': False, 'upscale': False, 'casual': False}"}, "categories": "Bars, Nightlife", "hours": null}
{"business_id": "3s_Imio3mrin_Y8RtIwMxQ", "name": "Golden Land Asian Cuisine", "address": "9559 Babcock Blvd", "city": "Allison Park", "state": "PA", "postal_code": "15101", "latitude": 40.580006, "longitude": -80.0075774, "stars": 4.5, "review_count": 12, "is_open": 1, "attributes": {"RestaurantsTableService": "True", "RestaurantsReservations": "True", "BusinessParking": "{'garage': False, 'street': False, 'validated': False, 'lot': True, 'valet': False}", "Caters": "True", "WiFi": "u'free'", "Alcohol": "u'none'", "WheelchairAccessible": "True", "BusinessAcceptsCreditCards": "True", "DogsAllowed": "False", "HasTV": "True", "OutdoorSeating": "False", "RestaurantsTakeOut": "True", "RestaurantsDelivery": "True", "BikeParking": "True", "BusinessAcceptsBitcoin": "False"}, "categories": "Asian Fusion, Thai, Restaurants", "hours": {"Monday": "0:0-0:0", "Tuesday": "15:30-23:30", "Wednesday": "15:30-23:30", "Thursday": "15:30-23:30", "Friday": "15:30-23:30", "Saturday": "15:30-23:30"}}
{"business_id": "hMppEN5OS6L95qwPartxOw", "name": "Wood Floors & More", "address": "4707 William Flynn Hwy, Ste 3", "city": "Allison Park", "state": "PA", "postal_code": "15101", "latitude": 40.5935047882, "longitude": -79.9480886478, "stars": 5.0, "review_count": 3, "is_open": 1, "attributes": {"ByAppointmentOnly": "False", "BusinessAcceptsCreditCards": "True"}, "categories": "Carpet Installation, Contractors, Tiling, Flooring, Home Services, Carpeting", "hours": {"Monday": "0:0-0:0", "Tuesday": "15:0-18:0", "Wednesday": "10:0-18:0", "Thursday": "10:0-18:0", "Friday": "10:0-18:0", "Saturday": "9:0-15:0"}}
{"business_id": "VcSn9QkXjo6lFuT6PIL2dA", "name": "Chow's Asian Cuisine", "address": "9559 Babcock Blvd", "city": "Allison Park", "state": "PA", "postal_code": "15101", "latitude": 40.580006, "longitude": -80.0075774, "stars": 3.5, "review_count": 8, "is_open": 0, "attributes": {"RestaurantsTakeOut": "True", "WiFi": "u'no'", "GoodForKids": "True", "BusinessAcceptsCreditCards": "True", "RestaurantsGoodForGroups": "True", "Alcohol": "u'none'", "RestaurantsDelivery": "True", "RestaurantsPriceRange2": "2", "BusinessParking": "{'garage': False, 'street': False, 'validated': False, 'lot': True, 'valet': False}", "HasTV": "True", "OutdoorSeating": "False", "BikeParking": "True", "RestaurantsReservations": "True", "Ambience": "{'romantic': False, 'intimate': False, 'classy': False, 'hipster': False, 'divey': False, 'touristy': False, 'trendy': False, 'upscale': False, 'casual': False}", "RestaurantsAttire": "u'casual'"}, "categories": "Restaurants, Asian Fusion, Taiwanese", "hours": {"Monday": "11:0-21:0", "Tuesday": "11:0-21:0", "Wednesday": "11:0-21:0", "Thursday": "11:0-21:0", "Friday": "11:0-21:0", "Saturday": "15:0-21:0", "Sunday": "15:0-21:0"}}
{"business_id": "m-vHeoBYXAclh-ZV56dOEw", "name": "Mission Mahi!", "address": "8898 Peebles Rd", "city": "Allison Park", "state": "PA", "postal_code": "15101", "latitude": 40.5703336218, "longitude": -80.002643913, "stars": 4.5, "review_count": 32, "is_open": 1, "attributes": {"BusinessAcceptsCreditCards": "True", "RestaurantsPriceRange2": "2", "BikeParking": "True", "RestaurantsTakeOut": "True", "GoodForMeal": "{'dessert': False, 'latenight': False, 'lunch': True, 'dinner': False, 'brunch': False, 'breakfast': False}", "Alcohol": "u'none'", "Caters": "True", "BusinessParking": "{'garage': False, 'street': False, 'validated': False, 'lot': False, 'valet': False}", "RestaurantsDelivery": "False"}, "categories": "Food Trucks, Food", "hours": null}
{"business_id": "2wGkiIpZ_ho3AchbotRQfw", "name": "Barrel Junction", "address": "3108 William Flynn Hwy", "city": "Allison Park", "state": "PA", "postal_code": "15101", "latitude": 40.546882, "longitude": -79.960637, "stars": 3.5, "review_count": 37, "is_open": 1, "attributes": {"OutdoorSeating": "True", "RestaurantsPriceRange2": "2", "GoodForKids": "True", "Ambience": "{'touristy': False, 'hipster': False, 'romantic': False, 'divey': False, 'intimate': False, 'trendy': False, 'upscale': False, 'classy': False, 'casual': True}", "RestaurantsTableService": "True", "BusinessParking": "{'garage': False, 'street': False, 'validated': False, 'lot': True, 'valet': False}", "Alcohol": "u'full_bar'", "RestaurantsGoodForGroups": "True", "RestaurantsDelivery": "False", "WiFi": "u'no'", "HasTV": "True", "BusinessAcceptsCreditCards": "True", "BikeParking": "True", "RestaurantsAttire": "u'casual'", "RestaurantsTakeOut": "True", "GoodForMeal": "{'dessert': False, 'latenight': False, 'lunch': False, 'dinner': False, 'brunch': False, 'breakfast': False}", "DriveThru": "False", "NoiseLevel": "u'loud'", "RestaurantsReservations": "False"}, "categories": "Restaurants, Burgers, American (Traditional), Salad", "hours": {"Tuesday": "16:0-0:0", "Wednesday": "16:0-0:0", "Thursday": "16:0-0:0", "Friday": "12:0-2:0", "Saturday": "12:0-2:0", "Sunday": "12:0-2:0"}}
{"business_id": "Z2aHSK6h-hNfiA97SSQMRA", "name": "Presidential Arms Apartments", "address": "9815 Presidential Dr", "city": "Allison Park", "state": "PA", "postal_code": "15101", "latitude": 40.583233, "longitude": -79.996891, "stars": 1.0, "review_count": 4, "is_open": 1, "attributes": null, "categories": "Real Estate, Apartments, Home Services", "hours": null}
{"business_id": "_-Z2zPiuhw3V2RixPZ89Cw", "name": "China Bistro", "address": "4779 William Flynn Hwy", "city": "Allison Park", "state": "PA", "postal_code": "15101", "latitude": 40.5965122, "longitude": -79.9480677, "stars": 3.0, "review_count": 5, "is_open": 0, "attributes": {"RestaurantsTakeOut": "False", "RestaurantsDelivery": "True", "NoiseLevel": "u'quiet'", "OutdoorSeating": "False", "RestaurantsAttire": "u'casual'", "BusinessAcceptsCreditCards": "True", "RestaurantsGoodForGroups": "True", "HasTV": "True"}, "categories": "Chinese, Restaurants, Dim Sum", "hours": null}
{"business_id": "kvim5yrDt-yTITij0OV7lg", "name": "A Sweet Morsel", "address": "3612 William Flinn Hwy", "city": "Allison Park", "state": "PA", "postal_code": "15101", "latitude": 40.5539191091, "longitude": -79.9579740688, "stars": 4.5, "review_count": 3, "is_open": 1, "attributes": null, "categories": "Patisserie/Cake Shop, Food, Cupcakes, Bakeries", "hours": {"Monday": "10:0-18:0", "Tuesday": "10:0-18:0", "Wednesday": "10:0-18:0", "Thursday": "10:0-18:0", "Friday": "10:0-18:0", "Saturday": "10:0-14:0"}}
{"business_id": "RJLzwW9bW9foKgsPwMCxzw", "name": "Speedy Furniture - Allison Park", "address": "4960 William Flynn Hwy", "city": "Allison Park", "state": "PA", "postal_code": "15101", "latitude": 40.602489, "longitude": -79.945544, "stars": 3.5, "review_count": 3, "is_open": 1, "attributes": {"BikeParking": "False", "BusinessAcceptsCreditCards": "True", "RestaurantsPriceRange2": "2"}, "categories": "Home Decor, Shopping, Furniture Stores, Mattresses, Home & Garden", "hours": {"Monday": "10:0-16:0", "Tuesday": "11:0-19:0", "Wednesday": "10:0-16:0", "Thursday": "11:0-19:0", "Friday": "10:0-16:0", "Saturday": "10:0-16:0"}}
{"business_id": "7NhLscBs-Cj2DfPyVdGrqg", "name": "Domino's Pizza", "address": "4848 William Flynn Hwy, Ste 2", "city": "Allison Park", "state": "PA", "postal_code": "15101", "latitude": 40.5998475239, "longitude": -79.9466154331, "stars": 3.5, "review_count": 6, "is_open": 1, "attributes": null, "categories": "Restaurants, Chicken Wings, Pizza, Sandwiches", "hours": {"Monday": "10:30-23:0", "Tuesday": "10:30-23:0", "Wednesday": "10:30-23:0", "Thursday": "10:30-23:0", "Friday": "10:30-0:0", "Saturday": "10:30-0:0", "Sunday": "10:30-23:0"}}
{"business_id": "ELlk3Vol0lPKzwHxp-MoAw", "name": "Burger King", "address": "4885 William Flynn Hwy", "city": "Allison Park", "state": "PA", "postal_code": "15101", "latitude": 40.6019295, "longitude": -79.9478384, "stars": 3.5, "review_count": 6, "is_open": 1, "attributes": {"RestaurantsTakeOut": "True", "BikeParking": "False", "RestaurantsReservations": "False", "GoodForKids": "True", "RestaurantsDelivery": "False", "RestaurantsPriceRange2": "1", "RestaurantsAttire": "'casual'", "BusinessParking": "{'garage': False, 'street': False, 'validated': False, 'lot': False, 'valet': False}", "BusinessAcceptsCreditCards": "True"}, "categories": "Restaurants, Burgers, Fast Food", "hours": null}
{"business_id": "3jM5_JRZ7zgMI7ThvLm0Rg", "name": "Hampton Community Park", "address": "3101 McCully Rd", "city": "Allison Park", "state": "PA", "postal_code": "15101", "latitude": 40.5852902359, "longitude": -79.9376147613, "stars": 4.0, "review_count": 4, "is_open": 1, "attributes": {"BusinessParking": "{'garage': False, 'street': False, 'validated': False, 'lot': False, 'valet': False}", "GoodForKids": "True", "BikeParking": "True"}, "categories": "Kids Activities, Active Life, Swimming Pools, Tennis, Parks", "hours": null}
{"business_id": "o9pydbXW9aT7Hry_z8wbeQ", "name": "Pasquale's Pizzeria", "address": "2412 Ferguson Rd, Ste 6", "city": "Allison Park", "state": "PA", "postal_code": "15101", "latitude": 40.5546213675, "longitude": -79.9722249209, "stars": 3.5, "review_count": 17, "is_open": 1, "attributes": {"Alcohol": "u'none'", "Ambience": "{'romantic': False, 'intimate': False, 'classy': False, 'hipster': False, 'divey': False, 'touristy': False, 'trendy': False, 'upscale': False, 'casual': False}", "BusinessParking": "{'garage': False, 'street': False, 'validated': False, 'lot': True, 'valet': False}", "RestaurantsDelivery": "True", "RestaurantsPriceRange2": "1", "OutdoorSeating": "False", "GoodForMeal": "{'dessert': False, 'latenight': False, 'lunch': True, 'dinner': True, 'brunch': False, 'breakfast': False}", "WiFi": "u'no'", "GoodForKids": "True", "HasTV": "False", "NoiseLevel": "u'average'", "RestaurantsReservations": "False", "RestaurantsAttire": "u'casual'", "BusinessAcceptsCreditCards": "True", "RestaurantsTakeOut": "True", "BikeParking": "True", "Caters": "False", "RestaurantsGoodForGroups": "True"}, "categories": "Italian, Pizza, Restaurants", "hours": {"Monday": "10:30-22:0", "Tuesday": "10:30-22:0", "Wednesday": "10:30-22:0", "Thursday": "10:30-22:0", "Friday": "10:30-23:0", "Saturday": "10:30-23:0", "Sunday": "10:30-22:0"}}
{"business_id": "-QHKjrlSlhpIwGoppdiViA", "name": "NTB - National Tire & Battery", "address": "4919 William Flynn Hwy Rt 8", "city": "Allison Park", "state": "PA", "postal_code": "15101", "latitude": 40.602875, "longitude": -79.947723, "stars": 1.5, "review_count": 6, "is_open": 1, "attributes": null, "categories": "Auto Repair, Tires, Automotive, Battery Stores, Oil Change Stations, Shopping", "hours": {"Monday": "7:30-20:0", "Tuesday": "7:30-20:0", "Wednesday": "7:30-20:0", "Thursday": "7:30-20:0", "Friday": "7:30-20:0", "Saturday": "7:30-19:0", "Sunday": "8:0-18:0"}}
{"business_id": "X9KOQUXiEH94QDpgeRofyg", "name": "Planet Bounce North Star", "address": "4025 Alpha Dr", "city": "Allison Park", "state": "PA", "postal_code": "15101", "latitude": 40.5652133, "longitude": -79.9676612, "stars": 3.0, "review_count": 7, "is_open": 1, "attributes": {"GoodForKids": "True", "BikeParking": "True", "BusinessAcceptsCreditCards": "True", "BusinessParking": "{'garage': False, 'street': False, 'validated': False, 'lot': True, 'valet': False}"}, "categories": "Kids Activities, Active Life, Sports Clubs, Recreation Centers, Amusement Parks", "hours": {"Tuesday": "10:0-13:0", "Wednesday": "16:0-20:0", "Thursday": "16:0-20:0", "Friday": "9:0-13:0", "Saturday": "10:0-18:0", "Sunday": "10:0-17:0"}}
{"business_id": "LEDaU-rvNk9oBLH6oUcoqg", "name": "Pizza Hut", "address": "4873 Route 8", "city": "Allison Park", "state": "PA", "postal_code": "15101", "latitude": 40.6015544, "longitude": -79.9477458, "stars": 2.5, "review_count": 9, "is_open": 1, "attributes": {"BikeParking": "True", "RestaurantsReservations": "False", "HasTV": "False", "RestaurantsTakeOut": "True", "RestaurantsAttire": "'casual'", "GoodForKids": "True", "RestaurantsGoodForGroups": "True", "BusinessAcceptsCreditCards": "True", "RestaurantsDelivery": "True", "RestaurantsPriceRange2": "1", "OutdoorSeating": "False", "NoiseLevel": "None", "BusinessParking": "{'garage': False, 'street': False, 'validated': False, 'lot': False, 'valet': False}", "GoodForMeal": "{'dessert': False, 'latenight': False, 'lunch': False, 'dinner': False, 'brunch': False, 'breakfast': False}"}, "categories": "Restaurants, Italian, Pizza, Chicken Wings", "hours": null}
{"business_id": "FX5hsECTZF4n-vZPRVSXHg", "name": "Blue", "address": "1701 Duncan Ave", "city": "Allison Park", "state": "PA", "postal_code": "15101", "latitude": 40.5673828, "longitude": -79.999307, "stars": 3.5, "review_count": 27, "is_open": 0, "attributes": {"RestaurantsReservations": "True", "Ambience": "{'romantic': False, 'intimate': False, 'touristy': False, 'hipster': False, 'divey': False, 'classy': False, 'trendy': True, 'upscale': False, 'casual': False}", "RestaurantsDelivery": "False", "RestaurantsTakeOut": "True", "GoodForKids": "False", "BusinessParking": "{'garage': False, 'street': False, 'validated': False, 'lot': True, 'valet': False}", "OutdoorSeating": "True", "BusinessAcceptsCreditCards": "True", "BikeParking": "False", "Alcohol": "u'full_bar'", "RestaurantsAttire": "u'casual'", "HasTV": "True", "Caters": "False", "RestaurantsPriceRange2": "2", "RestaurantsGoodForGroups": "True", "NoiseLevel": "u'average'"}, "categories": "American (New), Nightlife, Bars, Restaurants", "hours": {"Monday": "16:0-22:0", "Tuesday": "16:0-22:0", "Wednesday": "16:0-22:0", "Thursday": "16:0-22:0", "Friday": "16:0-22:0", "Saturday": "16:0-22:0"}}
{"business_id": "YrqtAT2__95zzkuBlZQTBQ", "name": "Caliente Pizza & Drafthouse", "address": "4706 William Flinn Hwy", "city": "Allison Park", "state": "PA", "postal_code": "15101", "latitude": 40.5939265, "longitude": -79.9470311, "stars": 4.0, "review_count": 5, "is_open": 1, "attributes": {"WiFi": "'free'", "RestaurantsReservations": "False", "RestaurantsTakeOut": "True", "GoodForKids": "True", "RestaurantsAttire": "'casual'", "RestaurantsPriceRange2": "2", "HasTV": "True", "Ambience": "{'touristy': False, 'hipster': False, 'romantic': False, 'divey': False, 'intimate': False, 'trendy': False, 'upscale': False, 'classy': False, 'casual': False}", "RestaurantsGoodForGroups": "True", "HappyHour": "True", "BusinessAcceptsCreditCards": "True"}, "categories": "Food, Salad, Nightlife, Burgers, Beer, Wine & Spirits, Pizza, Bars, Restaurants, Beer Bar", "hours": {"Monday": "11:0-23:0", "Tuesday": "11:0-23:0", "Wednesday": "11:0-23:0", "Thursday": "11:0-23:0", "Friday": "11:0-1:0", "Saturday": "11:0-1:0", "Sunday": "11:0-23:0"}}
{"business_id": "xEt6imdvYi-avmAp3norRw", "name": "Wildwood Golf Club", "address": "2195 Sample Rd", "city": "Allison Park", "state": "PA", "postal_code": "15101", "latitude": 40.579303, "longitude": -79.989615, "stars": 5.0, "review_count": 3, "is_open": 1, "attributes": {"GoodForKids": "True"}, "categories": "Event Planning & Services, American (Traditional), Venues & Event Spaces, Wedding Planning, Golf, Restaurants, Active Life", "hours": {"Wednesday": "11:0-20:30", "Thursday": "11:0-20:30", "Friday": "11:0-21:0", "Saturday": "11:0-21:0", "Sunday": "10:30-20:30"}}
{"business_id": "CrDHpkNGyHUgLAMynKfBZA", "name": "Go Ape", "address": "991 Tennis Ct Rd", "city": "Allison Park", "state": "PA", "postal_code": "15101", "latitude": 40.6059888463, "longitude": -80.0110995412, "stars": 5.0, "review_count": 23, "is_open": 1, "attributes": {"GoodForKids": "True", "BusinessParking": "{'garage': False, 'street': False, 'validated': False, 'lot': False, 'valet': False}", "ByAppointmentOnly": "False", "BusinessAcceptsCreditCards": "True", "BikeParking": "True"}, "categories": "Active Life, Kids Activities, Recreation Centers, Event Planning & Services, Ziplining, Challenge Courses, Party & Event Planning", "hours": null}
{"business_id": "40P_4qjw8HMP1Z2ChJ7fJg", "name": "TruGreen Lawn Care", "address": "3812 William Flynn Hwy, Bldg 9", "city": "Allison Park", "state": "PA", "postal_code": "15101", "latitude": 40.5554274, "longitude": -79.9576108, "stars": 2.5, "review_count": 3, "is_open": 1, "attributes": null, "categories": "Landscaping, Home Services", "hours": {"Monday": "8:0-19:0", "Tuesday": "8:0-19:0", "Wednesday": "8:0-19:0", "Thursday": "8:0-19:0", "Friday": "8:0-19:0", "Saturday": "9:0-12:0"}}
{"business_id": "KF7U3XgeATHznAcQCVQpiQ", "name": "Owl Cleaners", "address": "3618 William Flynn Hwy", "city": "Allison Park", "state": "PA", "postal_code": "15101", "latitude": 40.554014, "longitude": -79.958046, "stars": 4.5, "review_count": 5, "is_open": 1, "attributes": {"BusinessAcceptsCreditCards": "True"}, "categories": "Sewing & Alterations, Local Services, Dry Cleaning & Laundry, Laundry Services", "hours": {"Monday": "7:30-19:0", "Tuesday": "7:30-19:0", "Wednesday": "7:30-19:0", "Thursday": "7:30-19:0", "Friday": "7:30-19:0", "Saturday": "9:0-15:0"}}
{"business_id": "EtYNve5bpZAku_sU9sj1IA", "name": "Giel David P Garage Door", "address": "4055 William Flynn Hwy", "city": "Allison Park", "state": "PA", "postal_code": "15101", "latitude": 40.56615, "longitude": -79.955777, "stars": 3.5, "review_count": 6, "is_open": 1, "attributes": {"BusinessAcceptsBitcoin": "False", "ByAppointmentOnly": "False", "BusinessAcceptsCreditCards": "False"}, "categories": "Contractors, Garage Door Services, Home Services", "hours": {"Monday": "8:0-17:0", "Tuesday": "8:0-17:0", "Wednesday": "8:0-17:0", "Thursday": "8:0-17:0", "Friday": "8:0-17:0"}}
{"business_id": "Pj2iIREyuYLdSO35l9a1CA", "name": "Allison Park Automotive", "address": "4079 William Flynn Hwy", "city": "Allison Park", "state": "PA", "postal_code": "15101", "latitude": 40.5669862, "longitude": -79.9552374, "stars": 3.5, "review_count": 3, "is_open": 1, "attributes": null, "categories": "Automotive, Auto Repair", "hours": {"Monday": "8:30-17:0", "Tuesday": "8:30-17:0", "Wednesday": "8:30-17:0", "Thursday": "8:30-17:0", "Friday": "8:30-17:0"}}
{"business_id": "niRPqqlDCM_t9bKwUq1JcA", "name": "The Happy Hound", "address": "2412 Ferguson Rd", "city": "Allison Park", "state": "PA", "postal_code": "15101", "latitude": 40.5548864, "longitude": -79.9723371, "stars": 5.0, "review_count": 5, "is_open": 1, "attributes": null, "categories": "Pet Groomers, Pet Sitting, Pet Services, Pets", "hours": null}
{"business_id": "cvwEo8XeVhmv6HBOFnShMw", "name": "College Hunks Hauling Junk and Moving", "address": "3812 William Flynn Hwy, Bldg 14", "city": "Allison Park", "state": "PA", "postal_code": "15101", "latitude": 40.5554274, "longitude": -79.9576108, "stars": 3.5, "review_count": 20, "is_open": 1, "attributes": {"ByAppointmentOnly": "True", "BusinessAcceptsCreditCards": "True"}, "categories": "Home Services, Junk Removal & Hauling, Local Services, Movers, Packing Services", "hours": {"Monday": "8:0-18:0", "Tuesday": "8:0-18:0", "Wednesday": "8:0-18:0", "Thursday": "8:0-18:0", "Friday": "8:0-18:0", "Saturday": "8:0-18:0"}}
{"business_id": "0hMRtJ7Qq6E0xLueVB2iPQ", "name": "J & T Tire Pros & Auto Service", "address": "3304 William Flynn Hwy", "city": "Allison Park", "state": "PA", "postal_code": "15101", "latitude": 40.548348, "longitude": -79.9595673, "stars": 3.5, "review_count": 5, "is_open": 1, "attributes": null, "categories": "Tires, Oil Change Stations, Wheel & Rim Repair, Auto Repair, Automotive", "hours": {"Monday": "8:0-18:0", "Tuesday": "8:0-18:0", "Wednesday": "8:0-18:0", "Thursday": "8:0-18:0", "Friday": "8:0-18:0"}}
{"business_id": "j4mpwH0ACxFRKS_bciK-_Q", "name": "Hampton Community Library", "address": "3101 McCully Rd", "city": "Allison Park", "state": "PA", "postal_code": "15101", "latitude": 40.5820889, "longitude": -79.9348769, "stars": 4.5, "review_count": 3, "is_open": 1, "attributes": {"WiFi": "'free'"}, "categories": "Public Services & Government, Libraries", "hours": {"Tuesday": "9:30-20:0", "Wednesday": "9:30-20:0", "Thursday": "9:30-20:0", "Friday": "9:30-17:0", "Saturday": "9:0-16:0"}}
{"business_id": "Q_ob5Te69tDsquwQqJ9MgA", "name": "Smokin' Hot Yoga", "address": "4848 Rt 8", "city": "Allison Park", "state": "PA", "postal_code": "15101", "latitude": 40.5994887, "longitude": -79.9473905, "stars": 3.5, "review_count": 3, "is_open": 0, "attributes": {"GoodForKids": "False"}, "categories": "Active Life, Yoga, Fitness & Instruction", "hours": {"Monday": "18:30-19:45", "Tuesday": "19:0-20:0", "Wednesday": "18:30-19:45", "Thursday": "19:0-20:0", "Friday": "17:30-18:45", "Saturday": "11:0-12:15", "Sunday": "12:0-13:15"}}
{"business_id": "s6mf717R4iud7LBsbMrLNw", "name": "North Suburban Family Health Center", "address": "4284 William Flynn Hwy", "city": "Allison Park", "state": "PA", "postal_code": "15101", "latitude": 40.5756337, "longitude": -79.9542149, "stars": 2.5, "review_count": 3, "is_open": 1, "attributes": {"ByAppointmentOnly": "True"}, "categories": "Doctors, Health & Medical, Internal Medicine", "hours": null}
{"business_id": "O9WOMBkzYOEN-wBX6-Mfhg", "name": "Hearts & Flowers Floral Design Studio", "address": "4960 William Flynn Hwy, Ste 25", "city": "Allison Park", "state": "PA", "postal_code": "15101", "latitude": 40.602631, "longitude": -79.945294, "stars": 4.5, "review_count": 3, "is_open": 1, "attributes": {"BusinessAcceptsCreditCards": "True", "RestaurantsPriceRange2": "3", "BusinessParking": "None"}, "categories": "Florists, Flowers & Gifts, Shopping", "hours": null}
{"business_id": "ARyKI_UYS9GW1y9lvU3fyw", "name": "Vet to Pet", "address": "", "city": "Allison Park", "state": "PA", "postal_code": "15101", "latitude": 40.5711913, "longitude": -79.9528451, "stars": 3.5, "review_count": 3, "is_open": 1, "attributes": null, "categories": "Veterinarians, Pets", "hours": {"Monday": "9:0-17:0", "Tuesday": "9:0-19:0", "Wednesday": "12:0-19:0", "Thursday": "9:0-17:0", "Friday": "9:0-17:0", "Saturday": "9:0-16:0"}}
{"business_id": "-K1ns3HK47YzogYqOg-9LQ", "name": "Alpine Pools", "address": "4660 William Flynn Hwy", "city": "Allison Park", "state": "PA", "postal_code": "15101", "latitude": 40.5917246, "longitude": -79.947412, "stars": 3.5, "review_count": 3, "is_open": 1, "attributes": {"BusinessParking": "{'garage': False, 'street': False, 'validated': False, 'lot': True, 'valet': False}", "BusinessAcceptsCreditCards": "True", "RestaurantsPriceRange2": "2", "BikeParking": "True"}, "categories": "Shopping, Home & Garden, Hot Tub & Pool", "hours": {"Monday": "10:0-17:0", "Tuesday": "10:0-20:0", "Wednesday": "10:0-17:0", "Thursday": "10:0-20:0", "Friday": "10:0-17:0", "Saturday": "10:0-15:0"}}
{"business_id": "Gux2664tn8PA26AN3rp1zA", "name": "Friendly Islander Landscaping & Outdoor Construction", "address": "2732 Tillia Dr", "city": "Allison Park", "state": "PA", "postal_code": "15101", "latitude": 40.547029, "longitude": -79.939204, "stars": 2.0, "review_count": 4, "is_open": 1, "attributes": null, "categories": "Home Services, Landscaping", "hours": null}
{"business_id": "BnMnAotMjCw7mYlYFZgCvQ", "name": "The Tuscan Inn", "address": "2684 Wildwood Rd", "city": "Allison Park", "state": "PA", "postal_code": "15101", "latitude": 40.589552, "longitude": -79.957038, "stars": 4.0, "review_count": 46, "is_open": 0, "attributes": {"HasTV": "True", "RestaurantsTakeOut": "True", "BusinessAcceptsCreditCards": "True", "OutdoorSeating": "False", "BikeParking": "False", "RestaurantsGoodForGroups": "True", "Alcohol": "u'full_bar'", "Ambience": "{'romantic': False, 'intimate': True, 'classy': False, 'hipster': False, 'divey': False, 'touristy': False, 'trendy': False, 'upscale': False, 'casual': False}", "BusinessParking": "{'garage': False, 'street': False, 'validated': False, 'lot': True, 'valet': False}", "RestaurantsDelivery": "False", "Caters": "True", "RestaurantsPriceRange2": "3", "WiFi": "u'free'", "NoiseLevel": "u'quiet'", "RestaurantsAttire": "u'casual'", "GoodForKids": "False", "RestaurantsReservations": "True"}, "categories": "Restaurants, Italian, American (New)", "hours": {"Tuesday": "16:0-21:0", "Wednesday": "16:0-21:0", "Thursday": "16:0-21:0", "Friday": "16:0-22:0", "Saturday": "16:0-22:0", "Sunday": "16:0-21:0"}}
{"business_id": "hKC0ZeoiCUmYCsJVTAQEgQ", "name": "Foreign Traffic Import Sales & Service", "address": "4813 Route 8", "city": "Allison Park", "state": "PA", "postal_code": "15101", "latitude": 40.597535, "longitude": -79.948143, "stars": 3.5, "review_count": 14, "is_open": 1, "attributes": {"BusinessAcceptsCreditCards": "True"}, "categories": "Car Dealers, Auto Loan Providers, Automotive, Tires, Smog Check Stations, Auto Repair, Oil Change Stations, Auto Detailing", "hours": {"Monday": "10:0-20:0", "Tuesday": "10:0-20:0", "Wednesday": "10:0-20:0", "Thursday": "10:0-20:0", "Friday": "8:0-17:0", "Saturday": "10:0-17:0"}}
{"business_id": "E9KIh9s6ohYsmQZZdMa5yQ", "name": "Royal Oak Nursery School & Kindergarten", "address": "4413 Mount Royal Blvd", "city": "Allison Park", "state": "PA", "postal_code": "15101", "latitude": 40.578613, "longitude": -79.958534, "stars": 3.5, "review_count": 3, "is_open": 1, "attributes": null, "categories": "Preschools, Education, Local Services, Child Care & Day Care, Elementary Schools", "hours": null}
